stop_id,stop_code,stop_name,stop_desc,stop_lat,stop_lon,zone_id,stop_url,location_type,parent_station,stop_timezone,wheelchair_boarding
STOP_1f948765-5e87-4e94-ab87-055c1e830cc8,,Texel Oosterend Hogezandskil,,53.1063085,4.8599696,,,0,,,
STOP_fee22d0f-ecc7-49d1-96f1-462df34c9181,,Lisse 2e Poellaan wz,,52.2399093,4.5473099,,,0,,,
STOP_62cbd152-8ed4-42a5-93d0-a461b55a6711,,Zwolle,,52.4797223,6.0815978,,,0,,,
STOP_b34d3b41-e6f7-4e77-8494-847e58c4357a,,Schaphalsterzijl,,53.3286240,6.4621711,,,0,,,
STOP_4ea1b923-e12d-42f7-9ac7-8924068adc23,,Gaastmeer,,52.9770204,5.4970157,,,0,,,
STOP_e58aab6c-6439-49c4-b395-117c49a66093,,Biesbosch Spieringpolder,,51.7855772,4.7651482,,,0,,,
STOP_65ab41d1-cb75-4661-b02a-844521c46bc9,,Acquoy,,51.9022227,5.1242423,,,0,,,
STOP_6e882eaa-6e1d-4817-b825-a4629f4b360e,,Pampus eiland,,52.3639128,5.0686777,,,0,,,
STOP_592b11e3-e756-4e45-830b-d5a986e6ed83,,Amstelveen Bovenkerkerpolder,,52.2726087,4.8724258,,,0,,,
VV:108:2,,Den Haag Westbroekpark,,52.1030410,4.2905870,,,0,,,
STOP_044fe36f-2ab1-4a5f-9751-4ad67b0a20f0,,Emden (D),,53.3397396,7.1854448,,,0,,,
VV:181:2,,Steyl,,51.3339390,6.1180520,,,0,,,
STOP_fc9f0f23-b861-4aa4-a760-965bdc220685,,Megen,,51.8176885,5.5475378,,,0,,,
STOP_746440ce-7a89-4086-af3c-2ade49345089,,Spijkenisse,,51.8309112,4.3946171,,,0,,,
STOP_7f97d245-c8ed-4ab8-b2c5-8fec27372fbb,,Kasteren,,51.5765495,5.3792346,,,0,,,
STOP_7ee0d923-0f98-4807-9b33-f90fb99810e6,,Rhederlaag,,51.9984896,6.0364294,,,0,,,
VV:193:1,,Noorden,,52.1641700,4.8261100,,,0,,,
STOP_70aaccb0-71b1-4757-9a3e-e90d41a3010d,,Kampen Mandjeswaard,,52.6022330,5.9501052,,,0,,,
STOP_39d4c47b-8e10-4f8a-954b-d7d77a0c199e,,De Brekken,,52.9782091,5.7080412,,,0,,,
VV:182:1,,IJmuiden,,52.4633770,4.5834510,,,0,,,
VV:253:1,,Amsterdam IJburg,,52.3532060,5.0036910,,,0,,,
VV:191:1,,Amsterdam Oeverlanden,,52.3344800,4.8146920,,,0,,,
STOP_d78e0acc-3e0a-495b-802f-0b983a5275e3,,Anna Jacobapolder,,51.6432701,4.0993166,,,0,,,
STOP_bf552b86-020f-4bf7-a62f-076256c17b5e,,Velden,,51.4191349,6.1579227,,,0,,,
STOP_76feef6b-4fa9-4a7b-a078-981648073fd0,,Loevestein,,51.8182324,5.0201082,,,0,,,
STOP_6e907e72-e20b-4246-87d1-3cdc2b85cf71,,Nieuw Beijerland,,51.8162825,4.3386126,,,0,,,
STOP_d6291ce4-2b82-4c44-a704-5bca372f5bb5,,d6291ce4-2b82-4c44-a704-5bca372f5bb5,,52.0082252,5.0967014,,,0,,,
STOP_71e0b1e8-bbd4-480a-95f2-522e3d93d3ff,,Wormerveer,,52.5143666,4.7764564,,,0,,,
VV:205:1,,Grou Hellinghaven,,53.0982950,5.8416360,,,0,,,
STOP_1bcec94b-0cc6-40df-a608-0de2cb8e8425,,Lienden,,51.9538932,5.5607557,,,0,,,
STOP_b416f038-7ac3-4c73-93a7-c2f80b3b8955,,Oosthuizen Warder 1,,52.5758740,5.0091755,,,0,,,
STOP_2f3f8678-7e86-471f-b1f0-e6cb992d3166,,Walcheren 5,,51.5182637,3.5648596,,,0,,,
VV:15:4,,Eemshaven,,53.4562790,6.8329390,,,0,,,
STOP_8ae3e918-f02c-46c7-9b62-c964875c879c,,De Burd,,53.0997899,5.8840263,,,0,,,
STOP_85b154ad-a95e-40a8-a3e5-ee625ed648f6,,Suawoude,,53.1720774,5.9359002,,,0,,,
STOP_e50e78e7-b478-4750-aa68-5ed06a441561,,Woerden,,52.0924737,4.8619115,,,0,,,
STOP_f9f864ff-9c48-4df5-80a4-2b2035404a7a,,Doornenburg,,51.8931130,6.0231256,,,0,,,
STOP_1290fd46-0bcb-4a94-92a2-e5e6274b1b3e,,DIntelsas,,51.6474644,4.3817639,,,0,,,
STOP_34e69e2e-5645-441d-8d2e-7c698bdbe0a1,,Grouw De Burd,,53.1003697,5.8506489,,,0,,,
VV:31:1,,Blitterswijck,,51.5313900,6.1188900,,,0,,,
STOP_c8bb3b07-1520-48d1-99f8-4cbbdbc98b99,,Zuiderzeemuseum,,52.7079333,5.3002596,,,0,,,
VV:17:1,,Gorssel,,52.2094400,6.1913900,,,0,,,
STOP_6189a52a-b533-471b-84fb-e3d8a756209f,,Lomm,,51.4584326,6.1743379,,,0,,,
VV:89:8,,Amstelveen Middenweg,,52.2608370,4.8538630,,,0,,,
VV:51:1,,Numansdorp,,51.7254920,4.4374670,,,0,,,
STOP_973000ce-c8f6-4690-8ed2-190f39fcc7ad,,Lisse 2e Poellaan oz,,52.2398765,4.5473957,,,0,,,
VV:89:9,,Amstelveen Nesserlaan,,52.2729190,4.8724450,,,0,,,
STOP_71e79a8d-e87d-4024-bde6-199e70badf3c,,Horst strand,,52.3147493,5.5601549,,,0,,,
STOP_01197575-72cb-48bf-8a79-097a4aa56baf,,Eemnes,,52.2548270,5.3274250,,,0,,,
STOP_65f85991-203e-41a6-8a89-b76db378caac,,Vlissingen Centrum,,51.4483907,3.5873795,,,0,,,
VV:161:1,,Culemborg,,51.9613900,5.2169400,,,0,,,
STOP_90f79c45-c5bc-47ad-adc4-8ca86c837397,,Grouw Yne Lyte,,53.1007304,5.8493400,,,0,,,
VV:19:1,,Ingen,,51.9794400,5.4963900,,,0,,,
STOP_a8eab1d0-97c7-4eb0-a3fe-09a333da4263,,Ameland,,53.4340830,5.7750320,,,0,,,
STOP_ab4c8a59-c6a6-4156-9ce6-1f3bcec08c44,,Bovenkerker polder,,52.2608098,4.8539937,,,0,,,
VV:89:4,,Amstelveen Nesserlaan,,52.2713900,4.8811100,,,0,,,
STOP_94801a46-717a-4f78-90fb-a93543ad5d01,,Klein Maarslag,,53.3501158,6.4395547,,,0,,,
STOP_c770a929-c792-4a05-8d56-8557eb58db41,,Warmond Tengnagel,,52.1895359,4.5215607,,,0,,,
VV:89:6,,Amsterdam Ouderkerkerdijk,,52.3233300,4.8947200,,,0,,,
VV:13:3,,Heukelum,,51.8738120,5.0736230,,,0,,,
VV:13:5,,Druten,,51.8977800,5.6030600,,,0,,,
VV:13:1,,Ravenstein,,51.7959920,5.6589670,,,0,,,
STOP_663a8e79-3b5c-4bec-a723-43be5652aeb9,,Marienwaerdt landgoed,,51.8868953,5.2133131,,,0,,,
STOP_568b63f2-bd3d-4e7f-9fc9-c35bf67472f1,,Blauwe Stad Nieuwe Weg,,53.1852011,7.0611191,,,0,,,
STOP_5ebf2514-369f-42f5-b7ba-cc5a53bff11b,,Zegveld,,52.0924671,4.8616326,,,0,,,
STOP_31a53a69-4a24-48c3-a434-001a486d319e,,Ooltgensplaat,,51.6823015,4.3623447,,,0,,,
VV:13:7,,Batenburg,,51.8204100,5.6324800,,,0,,,
VV:13:9,,Beuningen,,51.8767940,5.7776100,,,0,,,
STOP_16e0c29f-ab3f-4ea9-b075-d6a0b14df63d,,16e0c29f-ab3f-4ea9-b075-d6a0b14df63d,,52.2576379,4.7173619,,,0,,,
STOP_9c930e5c-b3b9-4860-bccc-d3ece1aa5ac7,,Breda Haagse Beemden,,51.6403805,4.7442806,,,0,,,
VV:196:1,,De Meern Alendorperweg,,52.0934680,5.0313290,,,0,,,
STOP_75a1736c-be32-418c-9feb-fc065973929a,,Joostendam,,52.1557748,4.9411225,,,0,,,
VV:82:1,,Afferden,,51.6333300,6.0033300,,,0,,,
STOP_703d2e18-85f4-4543-adda-a49ac2bdd8ad,,Den Bosch Stadswal,,51.6820687,5.2946377,,,0,,,
STOP_9eb10482-aa1d-4b60-81eb-0ce658a1bb82,,Ouderkerk a/d Amstel,,52.2805582,4.9355757,,,0,,,
STOP_f1e3150b-c02d-4ecc-8407-21462d14328a,,Sleeuwijk,,51.8196980,4.9602950,,,0,,,
VV:130:1,,Lauwersoog Het Booze Wijf,,53.4040920,6.2103890,,,0,,,
STOP_8cb05d37-9ec0-44d7-86e7-a2acee7c62be,,Spijk,,51.8575900,5.0062680,,,0,,,
STOP_1a52ac00-6ead-4fa2-aa71-d8af6f2d5512,,Wageningen,,51.9610602,5.6893945,,,0,,,
STOP_d426acd1-dcee-4a4e-a629-74a3d27df0c6,,Sint Jansklooster Natuurmonumenten,,52.6848834,6.0062170,,,0,,,
STOP_7e5cda74-2817-4d97-a515-68fdccc1983e,,Lottum,,51.4728564,6.1768913,,,0,,,
STOP_5c0f1e87-2950-4037-9ae0-39b8d37323a0,,Lanaye,,50.7772462,5.6968725,,,0,,,
STOP_5007b144-47f1-4387-adf5-40dac92c1fe0,,Woudrichem,,51.8186170,5.0043583,,,0,,,
STOP_86cca6ea-66f2-4e4c-b144-33763f1caf68,,Loo,,51.9371746,5.9629583,,,0,,,
VV:123:1,,Lochem Dochterenseweg,,52.1614800,6.3580830,,,0,,,
STOP_c1c0eb98-6976-4870-a280-ecbab48d8a1c,,Schalkwijk,,51.9641739,5.1893342,,,0,,,
VV:99:2,,Amsterdam Talud A4,,52.3391860,4.8184420,,,0,,,
STOP_bd8448d1-2726-45df-b79f-5a883b4c0712,,Loozen,,52.5918516,6.6576290,,,0,,,
STOP_63f0332a-c046-4258-86f6-78078000b2bb,,Joure Jachthaven,,52.9715160,5.7905889,,,0,,,
STOP_20a02471-2f91-46c7-aba2-104079b5fb75,,Nederhorst den Berg,,52.2716830,5.0296891,,,0,,,
STOP_30291393-bee3-4aa3-8a70-6ef4f859f54a,,Lopik,,51.9606833,4.9666357,,,0,,,
VV:21:1,,Rheden,,51.9991090,6.0355290,,,0,,,
STOP_d24c6d78-37e2-4b9d-8789-737fae4b9a0c,,Sebaldeburen,,53.1996319,6.3184154,,,0,,,
VV:206:3,,Gorinchem,,51.8263900,4.9750000,,,0,,,
STOP_7cccce69-a464-42ce-a582-4aba4a4d542f,,Krimpen,,51.9046984,4.5749903,,,0,,,
VV:192:3,,Holwerd,,53.3952800,5.8786100,,,0,,,
STOP_c1930056-8b66-4c29-8da0-bf06c53776a6,,Sophiapolder,,51.8351676,4.6626449,,,0,,,
VV:92:7,,Sprang-Capelle,,51.7175000,4.9811100,,,0,,,
STOP_4a1076c5-9f5e-4f21-97b7-80970e8a875a,,Oijen,,51.8295984,5.4968119,,,0,,,
STOP_16f3d058-6fb4-424c-8f4b-03b811444b21,,Driel,,51.9715309,5.8251464,,,0,,,
VV:58:1,,Badhoevedorp,,52.3456320,4.7807350,,,0,,,
STOP_c4f63476-c74f-49e5-af71-45b7e4f4f1d3,,Prinsentuin,,53.2054799,5.7927239,,,0,,,
STOP_b126a6b9-d0cc-4d11-9d3b-22028bff11d8,,Breukelen,,52.1743791,5.0029635,,,0,,,
STOP_4d0c2f71-5da3-493a-812d-57cbd7a4a950,,Beerta Hoofdstraat,,53.1569361,7.0707321,,,0,,,
STOP_8c37c57c-1be2-430d-90ed-7671098f3d25,,Zegveld,,52.1393818,4.8721147,,,0,,,
STOP_68d53401-b8d0-4c8d-83b5-3e324c06f594,,Eernewoude,,53.1441963,5.9096789,,,0,,,
STOP_fdd285be-6d2d-4618-9e09-1ed0c307599b,,Pannerden,,51.8678928,6.0620928,,,0,,,
STOP_ee4dea30-40d2-49b9-b9f3-a465b041f554,,Buitenkaag,,52.2189596,4.5600128,,,0,,,
STOP_86d64e8a-06d1-414c-95c1-957b774cf507,,Nijhuizum,,52.9776019,5.4951918,,,0,,,
STOP_d2252d31-e3c7-4264-8110-77aa821f65a9,,Hillegom,,52.3089378,4.5636392,,,0,,,
VV:92:3,,Herpt,,51.7419400,5.1636100,,,0,,,
STOP_b1f03177-1c84-4d8d-819b-23e7ad3495b8,,Marina Oolderhuuske,,51.1909098,5.9503090,,,0,,,
VV:234:1,,Hillegom,,52.2992450,4.5556150,,,0,,,
VV:92:5,,Waalwijk,,51.7102800,5.0494400,,,0,,,
STOP_f2c9f9b0-bf4f-4357-8edf-4c0a466dcc44,,Middelie,,52.5458390,4.9956572,,,0,,,
STOP_ebac7b48-0343-4444-ac05-59fff1e5e550,,recr.geb.Geestmerambacht,,52.6799532,4.7502673,,,0,,,
STOP_6ac2ee0e-fb4e-4b7e-8ab0-3163c5059ddc,,Warmond Zijldijk,,52.1961521,4.5357442,,,0,,,
STOP_33fee497-f9fe-4a36-92da-ae351cf395ac,,33fee497-f9fe-4a36-92da-ae351cf395ac,,52.3170317,5.2486753,,,0,,,
STOP_ad1e70b1-62fe-4615-b86f-f8e5fed0ec68,,Woerdense Verlaat Pietersenpad wz,,52.1632517,4.8605061,,,0,,,
VV:92:1,,Zwolle Leo Majorlaan,,52.5049710,6.1148080,,,0,,,
STOP_218e07aa-33e4-4fc1-81de-0cd21fe09d85,,De Ronde Hoep,,52.2705275,4.8814058,,,0,,,
VV:160:2,,Bruinisse,,51.6647450,4.0968680,,,0,,,
STOP_474ce462-75e7-41a2-ae52-a94176b06fd9,,Heemstede Crucuiushaven Noord,,52.3413568,4.6389341,,,0,,,
STOP_6674686c-71e7-4cdf-bf20-bf950143b0d6,,Rhenen,,51.9552553,5.5613887,,,0,,,
STOP_5cfd2fb5-0f2a-4bcc-ae4a-faddf3f2b0c5,,Warmond soc. de Kaag,,52.1961127,4.5362806,,,0,,,
STOP_876d8886-344e-4616-a803-c2984e8d44ee,,Rhoon,,51.8428838,4.4232845,,,0,,,
STOP_eee13dce-2d73-47e8-8890-4789bdc7f862,,Zaanse Schans,,52.4738737,4.8175478,,,0,,,
VV:16:1,,Noordlaren Osdijk,,53.1455600,6.6877800,,,0,,,
STOP_a0f01377-086a-4838-b8b7-4fffba0de48b,,De Cocksdorp Eendrachtweg,,53.1358620,4.8875856,,,0,,,
STOP_dfd0162d-f889-471a-ac9e-a2df73373cc8,,Oost Knollendam,,52.5195178,4.7926462,,,0,,,
VV:199:1,,Werkendam,,51.7791700,4.8736100,,,0,,,
VV:162:1,,Nessersluis,,52.2511100,4.8680600,,,0,,,
STOP_7d413765-ef7c-41fc-b6bd-99d0aede74af,,Bloemberg,,52.6538492,6.3647103,,,0,,,
STOP_43657b09-d7ef-4579-9350-20da288da326,,Het Jachthuis,,51.9374722,4.3007183,,,0,,,
STOP_c2be75c4-4661-45a9-86fa-d6d86f40397b,,Sitebuorren,,53.0998414,5.8845949,,,0,,,
STOP_1163dc16-8855-444e-9dd4-ec8faa404c6b,,Borkum,,53.5634576,6.7584372,,,0,,,
VV:195:1,,Tiel,,51.8844400,5.4405600,,,0,,,
STOP_540a507a-eb21-45b3-93b9-6f5cc4ad3220,,Oud Beijerland,,51.8283651,4.4115257,,,0,,,
STOP_41f73008-9814-4130-89b4-aca02265eef0,,Biesbosch,,51.7794045,4.8725009,,,0,,,
VV:203:1,,Amsterdam Schellingwoude (oost),,52.3832740,4.9608810,,,0,,,
VV:168:1,,Arnhem Rijnkade,,51.9771990,5.9063080,,,0,,,
STOP_f9ef40da-d136-4bba-8a00-9d2b40674c1f,,Hessum,,52.5143731,6.2946832,,,0,,,
STOP_3fa6f063-5471-42d8-9927-b8b59dac0ded,,Wemeldinge,,51.5207071,4.0060616,,,0,,,
STOP_3b56219a-cfd9-466d-ad3b-dbce438def42,,Krimpen a/d Lek,,51.8907426,4.6277332,,,0,,,
STOP_3c97a6ad-d25a-4b35-b5a7-f2c1a1b7d29e,,Woubrugge,,52.1825107,4.6330762,,,0,,,
STOP_22c523ec-ecfb-4649-b6f6-9ce57f34e51b,,Sneek Paviljoenwei,,53.0272904,5.7314515,,,0,,,
STOP_1eb9920c-72cc-435d-92ae-24e0d7ee86a6,,Walcheren 4,,51.5331091,3.5295510,,,0,,,
VV:169:2,,Alkmaar Bierkade,,52.6294400,4.7558300,,,0,,,
STOP_1f869ab1-2e66-4d50-b0be-f8010b2370b4,,Haringkade,,52.1028478,4.2904186,,,0,,,
VV:98:2,,Ameide,,51.9580600,4.9655600,,,0,,,
STOP_c268c959-3c2e-4b5d-92d3-c3539e1eb359,,Leiden Merenwijk,,52.1835632,4.5170116,,,0,,,
VV:67:3,,Oldemarkt,,52.8330600,5.9561100,,,0,,,
VV:9:1,,Aalsmeer,,52.2572200,4.7175000,,,0,,,
VV:9:2,,Rijsenhout,,52.2572200,4.7175000,,,0,,,
STOP_0b12b040-d13b-4e6d-a5ed-7e9793001670,,Schiermonnikoog,,53.4684307,6.1670208,,,0,,,
STOP_d0429a80-ca2e-4d77-9cf1-18fd13574028,,Den Helder Fort Westoever,,52.9496205,4.7795999,,,0,,,
STOP_0a17f0af-398e-4760-a5d6-a15537df9a66,,Het Sterlinggriend,,51.8068104,4.7625947,,,0,,,
STOP_b008fc2e-dbbe-4845-b37d-5227ae0bf2cc,,Gelkenes,,51.9404818,4.8538756,,,0,,,
STOP_b6e0f6b2-9448-4596-9574-24001809e5d4,,Eilandswal,,52.6290711,4.7562754,,,0,,,
STOP_5096e66a-c024-407c-877f-4f13cc9dd27e,,IJlst Eegracht,,53.0097355,5.6220281,,,0,,,
STOP_b95e1b38-893a-4fc2-9ee3-8e6660fe0db2,,Langweer,,52.9776923,5.7069898,,,0,,,
STOP_395c9f7e-fdd6-4f99-92ff-a48f5a53a7ad,,Leerdam Diefdijk,,51.9023286,5.1240385,,,0,,,
STOP_5e95ec78-dd61-4cb5-8602-08a776cbc17a,,Loozensche Linie,,52.5923861,6.6569853,,,0,,,
STOP_accbc7c7-66e2-499d-9281-0e3db1e6d909,,Streefkerk,,51.9176440,4.7871637,,,0,,,
STOP_213823f0-1de8-470e-abf5-307a4f566f8b,,Staringkoepel,,52.1612904,6.3581872,,,0,,,
STOP_3a0bfab2-41e1-4f98-8293-5c3045199ece,,Ameland,,53.4367418,5.7764053,,,0,,,
STOP_d18c08c5-9f37-432f-92c3-7507cb05b2d5,,Geulle,,50.9288041,5.7325029,,,0,,,
STOP_e84a1f31-1365-411b-b5cb-3ef7188f8cfa,,"Groede Bad, Cletemspolder",,51.3945935,3.4764862,,,0,,,
STOP_1eeb03a9-efd2-429b-b822-127d945523a8,,Meeswijk,,51.0062347,5.7661486,,,0,,,
STOP_4a17d854-6d0b-4301-8471-bc26cfc3558a,,Springersdiep (Ouddorp),,51.7973496,3.9352834,,,0,,,
VV:228:1,,Volendam,,52.4938900,5.0761100,,,0,,,
STOP_906eadd0-64b8-418f-adff-de916f772d95,,Pannerden,,51.9093582,6.0370195,,,0,,,
STOP_e0755a9e-5f01-41ea-82a2-b33560503575,,Marken,,52.4580688,5.1007569,,,0,,,
STOP_e351cab5-7b2b-4dbd-aba8-62021c1d93da,,Amsterdam Schellingwoude (west),,52.3843881,4.9534285,,,0,,,
STOP_de90d2c0-3f36-4f16-9917-2c13fd7fb10c,,Hotel New York,,51.9034672,4.4843102,,,0,,,
VV:229:2,,Goingarijp,,53.0102680,5.7693560,,,0,,,
STOP_f92e0786-c4d4-4169-8a89-95bdc83600d7,,Heveadorp,,51.9741548,5.8240950,,,0,,,
STOP_e8c8b0a5-306d-4ce8-b1f6-f31be83714a2,,Esscheplaat,,51.7051790,4.5388770,,,0,,,
STOP_3ef0acfe-efdb-4deb-bdc7-01f94ca30832,,Walcheren 1,,51.5206804,3.4602213,,,0,,,
STOP_aabd8388-b948-4817-94ae-fc92b9217b55,,Aboude,,52.2802169,4.9353719,,,0,,,
STOP_f1566f97-beb2-438c-9b35-7903ea36032e,,s Heer Abtskerke Zuidweg,,51.4615877,3.8818645,,,0,,,
VV:25:1,,Hekelingen,,51.8172740,4.3381740,,,0,,,
VV:219:1,,Dalfsen,,52.5145620,6.2938320,,,0,,,
VV:157:1,,Dieren,,52.0416700,6.1100000,,,0,,,
STOP_332f4c1b-0348-4688-ae27-f626c13bf34c,,Eernewoude,,53.1305001,5.9429598,,,0,,,
VV:220:1,,Gouda Goverwelle,,52.0136100,4.7522200,,,0,,,
STOP_3aa4b00a-6bbf-4018-8f51-f7e9483a036d,,Oosterenkweg,,52.3494841,6.2719488,,,0,,,
STOP_d21d3722-6d64-4d16-a631-40c5adc30f3d,,Sloten,,52.3459188,4.7811449,,,0,,,
VV:198:1,,Warmond Koudenhoorn,,52.1934410,4.5079550,,,0,,,
VV:23:9,,Alphen,,51.8311100,5.4972200,,,0,,,
STOP_593f0433-15a3-4626-870b-dd2aa46bfb66,,Sluiskil West,,51.2819844,3.8383377,,,0,,,
VV:218:1,,Kop van t Land,,51.7877800,4.7577800,,,0,,,
STOP_b19defc0-17ec-455e-be0d-7da68b97e6d7,,Bakkerskil,,51.7761253,4.9030137,,,0,,,
STOP_e13966d3-6372-450e-9df3-b5d9208b5d47,,Zaandam Verkade,,52.4471432,4.8199940,,,0,,,
STOP_9cf0d09a-dd6c-4472-a8de-3023fd0a3fb8,,Walcheren 3,,51.5303927,3.5190582,,,0,,,
STOP_853fd544-98ae-4b3b-9198-bbe3371f4087,,Nieuw Lekkerland,,51.8929276,4.6862805,,,0,,,
VV:23:2,,Alem,,51.7850000,5.3644400,,,0,,,
STOP_e46ce239-6d55-4762-9812-20967327ca9f,,Millingerwaard,,51.8798821,6.0049081,,,0,,,
VV:5:3,,Dordrecht Biesboschcentrum,,51.8069400,4.7633300,,,0,,,
STOP_fcbf212b-dfbf-4f93-85d6-a1973dfae719,,Olburgen,,52.0417351,6.1113381,,,0,,,
VV:23:5,,Maasbommel,,51.8186100,5.5458300,,,0,,,
VV:217:2,,Everdingen,,51.9714630,5.1476360,,,0,,,
VV:23:4,,Alphen,,51.8102800,5.4397200,,,0,,,
VV:87:2,,Dronrijp Dykshoek,,53.1835520,5.6046410,,,0,,,
VV:200:1,,Heemstede Crucuiushaven Zuid,,52.3410420,4.6388670,,,0,,,
STOP_3d0f08ef-0c69-4e20-a187-343f83786f8b,,Veere Wallen wz,,51.5499111,3.6632538,,,0,,,
STOP_918d3edb-808f-4e60-bed3-5d42677cbc31,,Woerdense Verlaat Pietersenpad oz,,52.1632385,4.8606563,,,0,,,
VV:32:1,,Ubbergen,,51.8402800,5.9088900,,,0,,,
STOP_af5d80f9-2a86-4380-85f4-bbe84cfea7d4,,Huiswaard,,51.8029427,4.7719932,,,0,,,
STOP_089540cc-b87e-4ab9-a52e-f122ff4a6155,,Zwijndrecht Groote Lindt,,51.8090658,4.5802581,,,0,,,
VV:27:1,,Krommenie,,52.5144400,4.7758300,,,0,,,
STOP_6f5b461c-e00b-499d-9a3b-c10245249f76,,Deventer De Worp,,52.2499010,6.1523867,,,0,,,
VV:134:1,,Deventer De Welle,,52.2516700,6.1525000,,,0,,,
STOP_d3604f21-17a3-4166-9b92-839d25fa0a31,,Nes a/d Amstel,,52.2516219,4.8678660,,,0,,,
VV:1:1,,Nieuwegein Museumwerf,,52.0081680,5.0970100,,,0,,,
STOP_1ae2540f-7967-4664-88bc-ba61fe73faad,,Broekpolder,,51.9348065,4.3076491,,,0,,,
STOP_47dd779c-3cec-4f04-bd51-765e545818cb,,Kockengen,,52.1556826,4.9411869,,,0,,,
STOP_2ad4ef46-6cf3-4cde-8748-a2370ad02aca,,Walcheren 2,,51.5330357,3.5070419,,,0,,,
STOP_09a39a59-613c-4ffc-ad7e-ebb8ab6ee7e2,,09a39a59-613c-4ffc-ad7e-ebb8ab6ee7e2,,51.7127446,4.5872748,,,0,,,
VV:136:2,,Akkrum,,53.0313900,5.8363900,,,0,,,
STOP_5ad1f878-1d15-42aa-918c-7c5563d0d1dc,,Maasbommel Loswal,,51.8204076,5.5449092,,,0,,,
VV:29:1,,Zaandam Wilhelminasluis,,52.4404180,4.8241090,,,0,,,
VV:29:6,,Zaandijk Gerrit Honigsluis (Lagedijk),,52.4771520,4.8104590,,,0,,,
STOP_073a2262-6c5d-4eac-8877-cadf3db61057,,Wijhe,,52.3920491,6.1262512,,,0,,,
VV:94:1,,s Gravenpolder Bergweg,,51.4614980,3.8821180,,,0,,,
STOP_55bad423-219f-4b40-8198-043d443f0f4e,,Roelofarendsveen,,52.1827344,4.6315312,,,0,,,
STOP_60751bc0-6691-49ca-a011-3270323ad18a,,Bergen,,51.5979742,6.0260868,,,0,,,
STOP_e3bdaf05-377d-4bcf-9a96-c9cc089c76bc,,Wolphaartsdijk,,51.5480297,3.8141870,,,0,,,
VV:215:1,,Ool,,51.1900000,5.9500000,,,0,,,
VV:114:1,,Heerewaarden Jachthaven,,51.8140050,5.3925600,,,0,,,
STOP_27520999-03b4-4dee-b44f-7bf7b15e383a,,Elst,,51.9807040,5.4972410,,,0,,,
STOP_49a9bbbf-b791-450b-a862-0c266e2c2676,,Walcheren 2,,51.5329623,3.5068703,,,0,,,
VV:216:2,,Krimpen ad Lek,,51.8869400,4.6194400,,,0,,,
VV:216:4,,Ridderkerk,,51.8869400,4.6194400,,,0,,,
STOP_3325fdb0-924d-429f-8b64-4117d0426d52,,Meppel,,52.6846557,6.2019753,,,0,,,
VV:111:1,,Schoonhoven,,51.9427800,4.8541700,,,0,,,
STOP_72d086cc-708f-47d4-926e-4f0a4668a287,,Biddinghuizen,,52.4145858,5.7451415,,,0,,,
STOP_684ddd07-7183-4026-8e0d-481e80123feb,,Den Bosch Bossche Broek,,51.6819556,5.2951634,,,0,,,
STOP_b87e3b44-cd37-4f73-bba2-e6d145920eca,,Maasland Duifpolder,,51.9532452,4.3168437,,,0,,,
VV:124:1,,Leeuwarden Noordersingel,,53.2058300,5.7925000,,,0,,,
STOP_1f17fc6f-f437-41d8-9c29-4f5c76f54bc7,,Port Zelande,,51.7570294,3.8604069,,,0,,,
STOP_68a170c4-334d-4c8e-8fbe-d9933bbbacf0,,Broekhuizen,,51.4864873,6.1659479,,,0,,,
VV:210:1,,Terheijden,,51.6425000,4.7463900,,,0,,,
STOP_29937d2e-2689-4f8d-8172-946e407caed9,,Arcen,,51.4734244,6.1789191,,,0,,,
VV:125:1,,Nieuwe Meer,,52.3255720,4.8180000,,,0,,,
STOP_0f93df15-c078-40c1-891f-d6eeedb2bcf7,,IJmuiden noorderpier,,52.4687694,4.5730591,,,0,,,
STOP_1f988f4f-cc22-41a6-b24f-738fddba1f7b,,Thorn,,51.1559853,5.8464432,,,0,,,
VV:212:1,,Garijp,,53.1725000,5.9380600,,,0,,,
STOP_8d485506-bb70-477e-9896-827ec38ce326,,Oldelamer,,52.8896419,5.8848846,,,0,,,
STOP_933c0ff3-f5cf-4112-84ff-75f234620afd,,Blokslootpolder,,52.9938848,5.7523084,,,0,,,
VV:90:1,,Kessel,,51.2877800,6.0483300,,,0,,,
VV:211:1,,Brielle,,51.9095350,4.1754420,,,0,,,
VV:241:3,,Delfzijl,,53.3313900,6.9316700,,,0,,,
VV:6:1,,Rijnsaterwoude,,52.2080600,4.6488900,,,0,,,
STOP_01adb889-3e1a-4c92-894b-8aea0de04893,,01adb889-3e1a-4c92-894b-8aea0de04893,,52.1052795,6.4907634,,,0,,,
VV:45:1,,Neer,,51.2580600,6.0044400,,,0,,,
VV:241:1,,Delfzijl,,53.3313900,6.9316700,,,0,,,
STOP_20967fe0-90ef-4e04-8479-fc2bbf1a4920,,Ditzum (D),,53.3188130,7.2784638,,,0,,,
STOP_819edbd0-a991-4cc7-bb02-c6ace4441bbd,,Oud-Beijerland Oude Tol,,51.8301686,4.3957865,,,0,,,
STOP_3d992526-bdd5-44a8-b2f1-97a25a7221a6,,De Rijp,,52.5393532,4.8335981,,,0,,,
VV:45:5,,Grevenbicht,,51.0413900,5.7658300,,,0,,,
VV:45:3,,Ohe en Laak,,51.1227800,5.8175000,,,0,,,
VV:139:1,,Holysloot,,52.4136100,5.0222200,,,0,,,
VV:46:4,,Vlissingen Keersluisbrug,,51.4435640,3.5935330,,,0,,,
VV:45:8,,Uikhoven,,50.9291700,5.7313900,,,0,,,
STOP_a94cdf43-55a1-4d8f-9b36-6215d15328e8,,Ilpendam Kanaalweg,,52.4635273,4.9486220,,,0,,,
VV:141:3,,Millingen aan de Rijn,,51.8663900,6.0550000,,,0,,,
STOP_5fb4415f-a19b-41c5-8545-170dda57bad5,,Gorishoek,,51.5275426,4.0735245,,,0,,,
VV:242:1,,Opheusden,,51.9408300,5.6150000,,,0,,,
VV:143:1,,Eck en Wiel,,51.9830600,5.4563900,,,0,,,
VV:48:1,,Genemuiden,,52.6294400,6.0386100,,,0,,,
STOP_9fbc85be-b139-4513-a278-782c1e7c7cf5,,Boerakker,,53.1996383,6.3187158,,,0,,,
STOP_878a320a-bdac-4be9-ad5f-0d321ac9dba4,,Moordrecht,,51.9858845,4.6719790,,,0,,,
STOP_1e33de9f-f4b9-492a-8eb3-add67beaf772,,De Cocksdorp,,53.1358877,4.8872530,,,0,,,
VV:4:3,,Rotterdam Leuvehaven,,51.9169070,4.4836340,,,0,,,
STOP_2a7c17e8-7f48-4d07-b18d-8e26eae9ce87,,Urk,,52.6607541,5.5992079,,,0,,,
VV:4:1,,Rotterdam Veerhaven,,51.9075140,4.4789320,,,0,,,
VV:144:2,,Bergstoep,,51.9200000,4.7850000,,,0,,,
STOP_139a9e12-fbb0-49bd-8255-eef24bae6a35,,Sambeek,,51.6324565,6.0014534,,,0,,,
VV:4:5,,Spijkenisse,,51.8533300,4.3325000,,,0,,,
VV:176:2,,Enkhuizen,,52.6993880,5.2903320,,,0,,,
VV:119:1,,Valkenburg,,52.1808300,4.4347200,,,0,,,
VV:176:1,,Enkhuizen,,52.6993880,5.2903320,,,0,,,
STOP_bf9cc070-ea29-4e5b-9805-91cc81cef8e9,,Rijssen Zuna,,52.3222912,6.5280354,,,0,,,
STOP_57a61969-5bb9-416c-9550-7e83ced1dbb8,,Schiermonnikoog,,53.4688395,6.2026405,,,0,,,
STOP_ef0ea4ae-5ed8-4e7e-83f9-bbedb187e1d0,,Rozenburg,,51.9104039,4.1774869,,,0,,,
STOP_aa78e820-97f3-4e34-aebd-3282fee6add2,,Julianadorp,,52.8830451,4.7737420,,,0,,,
VV:140:2,,Haarlem Schalkwijk,,52.3394400,4.6438900,,,0,,,
VV:179:1,,Hijken Oranjekanaal Zuidzijde,,52.8947590,6.5178800,,,0,,,
VV:177:1,,Wierden Notter,,52.3224220,6.5283460,,,0,,,
VV:135:1,,Brummen,,52.0825860,6.1709150,,,0,,,
STOP_0c055dc9-400e-4d16-999d-126b34913823,,De Zilk (2),,52.3090821,4.5631886,,,0,,,
STOP_15b1618d-9f2c-4fe8-9c3a-666482a1da74,,Krimpen a/d Lek,,51.8907691,4.6278191,,,0,,,
VV:178:1,,Hendrik Ido Ambacht,,51.8334540,4.6603960,,,0,,,
STOP_ed026596-c4ce-4e20-a7de-3a5d33f42255,,Walcheren 5,,51.5181635,3.5647416,,,0,,,
STOP_e2d5d2f2-d800-491a-a373-b77941399239,,Zwanburgerpolder,,52.1961127,4.5123768,,,0,,,
STOP_24670dd1-a035-4454-ba4e-a2937300b53a,,Gouden Ham (recr.gebied),,51.8199898,5.5467975,,,0,,,
STOP_2e2c7602-9171-43f5-b862-7362da10d8b5,,Aerdt,,51.8953045,6.0917366,,,0,,,
STOP_f89789dc-e5ef-4dff-a49a-ef189ad2d5b9,,Stad aan t Haringvliet,,51.7404169,4.2437482,,,0,,,
STOP_f3320113-3a7e-477e-8252-81a16e45c6fe,,Steyl,,51.3339633,6.1181831,,,0,,,
STOP_00dbf14f-337b-4f83-93c5-18a58782eb67,,Schermerdijk,,52.5706511,4.7470593,,,0,,,
STOP_12d8dc59-2b42-4318-a21e-1e5983b4ec95,,Hardinxveld,,51.8211371,4.8888302,,,0,,,
STOP_8b2c5e25-9cb9-494e-86e8-0fae0b09a7d4,,Gouda Steinse Hout,,52.0136072,4.7521448,,,0,,,
VV:151:1,,Haerst,,52.5405600,6.1350000,,,0,,,
STOP_56506a63-73ed-4c44-a013-cacd05b284ec,,Dussen,,51.7197972,4.9827933,,,0,,,
STOP_ba84803d-5f5c-4b0c-a710-fd353b15fe7c,,Randwijk,,51.9595660,5.6895447,,,0,,,
STOP_41ee8d10-c3de-4505-bc8d-5cf6fd55c745,,Wamel,,51.8821471,5.4443693,,,0,,,
STOP_c974e105-6397-4923-b95c-6879c007afa3,,Medemblik,,52.7748227,5.1065612,,,0,,,
STOP_fb361ba3-7c91-4810-a1b6-6e62437fff25,,Perkpolder,,51.3993328,4.0171230,,,0,,,
STOP_46425a66-e1be-48d9-814c-c92a92889e84,,Recreatiegebied Meerwijck,,53.1457536,6.6885066,,,0,,,
STOP_567b32a7-2d9c-41de-9ed8-2b2897b2aebf,,Oldetrijne,,52.8335342,5.9559202,,,0,,,
STOP_9e9d41a8-c94e-4078-a008-c247796d13f9,,Cuijk,,51.7315203,5.8836293,,,0,,,
VV:13:11,,Fort Everdingen,,51.9673280,5.1784320,,,0,,,
STOP_4cd082c1-46d9-4995-b379-79f3d3917a3a,,Walcheren 1,,51.5207605,3.4603930,,,0,,,
VV:226:1,,Zalk,,52.5313900,6.0152800,,,0,,,
STOP_de494a92-a0f6-4e7d-b498-2c07671732dd,,Wellerlooi,,51.5333227,6.1195993,,,0,,,
STOP_2196a9fe-6c44-463c-9b53-226b73885145,,Luinjeberd,,53.0183202,5.9205794,,,0,,,
STOP_0d9caa3d-74b7-46f6-8279-2e7d1360062a,,Muiden,,52.3316349,5.0704372,,,0,,,
STOP_9dceb9ec-6f68-4672-a03d-a235cf7937a8,,Zwolle Doepark Nooterhof,,52.5048722,6.1152112,,,0,,,
STOP_a33119c0-9a37-4b03-a4a9-64c06098364b,,Wartena,,53.1485978,5.9047222,,,0,,,
VV:165:1,,Borculo Galgenveld,,52.1052900,6.4910490,,,0,,,
STOP_08d9176b-97f7-4cd2-ac99-3a899456ebdd,,Nij Beets,,53.0568207,5.9687519,,,0,,,
VV:155:2,,Weerselo,,52.3693290,6.8348310,,,0,,,
VV:222:1,,Zwartsluis museum,,52.6403370,6.0735250,,,0,,,
VV:243:1,,Veere,,51.5502800,3.6700000,,,0,,,
VV:49:1,,Huissen,,51.9369400,5.9608300,,,0,,,
STOP_40b0804a-6105-47a0-8b81-cc56bc17e7ac,,Werkendam,,51.8146641,4.8868561,,,0,,,
STOP_aab2fd5c-1c05-43d5-99e8-f1abf350ddab,,Gaastmeer,,52.9587665,5.5373454,,,0,,,
STOP_e78a7caa-f516-44de-a74d-2f869dafbabc,,Colijnsplaat,,51.6026791,3.8503110,,,0,,,
VV:186:1,,Haarlem Belgielaan,,52.3646010,4.6373120,,,0,,,
STOP_c0c81968-2449-4b9c-a6c5-7ed50fb6747a,,Groot-Ammers,,51.9243338,4.8134172,,,0,,,
STOP_30685971-30f6-4890-aae6-86a708d588d0,,Nieuwerkerk a/d IJssel,,51.9744852,4.6293426,,,0,,,
VV:35:1,,Boornzwaag,,52.9616700,5.7425000,,,0,,,
STOP_b61b2f04-e199-4e25-9c32-d3284dbc6eb9,,Megen,,51.8270721,5.5667424,,,0,,,
STOP_da32c8ab-0b64-408b-90b4-1eec7a9bce38,,Ouderkerk a/d IJssel,,51.9357657,4.6328938,,,0,,,
STOP_358e1e0f-168d-4aea-ba2e-331a4a65b470,,Broek,,52.9934198,5.7539284,,,0,,,
VV:34:1,,Zoeterwoude Geerweg,,52.0958010,4.4845490,,,0,,,
VV:237:2,,Eemdijk,,52.2544400,5.3283300,,,0,,,
STOP_8660b5d3-41d3-4dc1-b213-f82c06b6d640,,Veessen,,52.3751407,6.0910714,,,0,,,
STOP_fa611f72-af2e-405f-9c30-6dd0865dc9a4,,Lithse Ham Jachthaven,,51.8109497,5.4099727,,,0,,,
STOP_209f0acd-e9c8-49b3-9b0f-eca67d80a366,,Nederhemert Noord,,51.7589952,5.1591969,,,0,,,
STOP_95be9fbf-65de-47ab-8a1a-e8adbc0bdc22,,Persingen,,51.8406765,5.9087563,,,0,,,
STOP_e796667f-9e32-47db-8b18-2963283f5c9e,,Welsum,,52.3412520,6.1016178,,,0,,,
STOP_4a72ec68-496e-4fad-a00e-da0a929a1d5e,,"Groede Bad, Restaurant De Deining",,51.3945600,3.4763038,,,0,,,
VV:146:2,,Ammerstol,,51.9254020,4.8106140,,,0,,,
STOP_79cba4c4-b590-452f-b8f4-061daf0fa535,,Geesberge (Maarssen),,52.1517989,5.0352252,,,0,,,
STOP_f83934b8-37d4-4beb-96e5-09416dba378b,,Walcheren 4,,51.5332826,3.5294759,,,0,,,
VV:13:14,,Varik,,51.8252800,5.3797200,,,0,,,
STOP_c0d08c7e-0405-42dc-a121-320b32a8e965,,Pampus eiland,,52.3638866,5.0686884,,,0,,,
STOP_5533d7a3-a681-4799-92cf-07b7d67279a3,,Balk,,52.9048255,5.5983603,,,0,,,
STOP_2934c35f-a861-44ee-9522-192d85ee4c8f,,Drongelen,,51.7125386,5.0492048,,,0,,,
STOP_27d9986f-49f7-4abb-a4cc-d035889d8ec0,,Woudrichem,,51.8169125,5.0088215,,,0,,,
VV:7:1,,Midden-Delfland Kwakelweg,,51.9389810,4.3003660,,,0,,,
STOP_3c8895ac-8f0a-4346-b48b-df44e39185f0,,3c8895ac-8f0a-4346-b48b-df44e39185f0,,51.3723698,6.1672997,,,0,,,
VV:7:4,,Vlaardingen Vlietzicht,,51.9533640,4.3173420,,,0,,,
STOP_9f771473-dfaa-488a-bbf8-1457db9d6bdd,,Yerseke,,51.4975762,4.0542126,,,0,,,
VV:95:1,,Renkum,,51.9691860,5.7330010,,,0,,,
STOP_3633e832-483d-473b-b505-9dae43cc8af0,,Willemstad,,51.6954242,4.4412124,,,0,,,
STOP_168e0172-4e78-432d-b7ac-4fbc0354d8e5,,Oude Wetering,,52.2079486,4.6479893,,,0,,,
STOP_5220652b-e9da-4f7c-9959-2820f19b6a18,,5220652b-e9da-4f7c-9959-2820f19b6a18,,51.6258032,4.2549169,,,0,,,
STOP_c50b47ef-2751-4a29-8111-3b2e1c58321a,,Joure Slachtedijk,,52.9716452,5.7908034,,,0,,,
VV:150:1,,Vorchten,,52.3927800,6.1241700,,,0,,,
STOP_80923334-976f-4584-a030-1b0ab96987d3,,Blankaardpolder,,52.0960133,4.4844067,,,0,,,
STOP_4a6dd68e-4845-483c-bd7f-5d6f6e3e8cd6,,Kalenberg Laarzenpad,,52.7798330,5.9624970,,,0,,,
VV:105:1,,Amsterdam Watergraafsmeer,,52.3567720,4.9621200,,,0,,,
STOP_c7675c5f-50fb-473b-aee6-3a233ab9b4cd,,Liempde,,51.5765361,5.3789985,,,0,,,
STOP_04de8d60-dc26-4851-801a-fd6412d9ac1f,,Rijnsburg,,52.1809911,4.4350863,,,0,,,
STOP_988e66aa-a0c4-40b9-807a-f14e749ff03c,,Strijensas,,51.7054117,4.5386088,,,0,,,
VV:103:1,,Nieuwer ter Aa,,52.1897200,4.9961100,,,0,,,
STOP_8d61df88-8f82-4610-9e0d-b24b17a2da50,,Veenhoop,,53.0981601,5.9458244,,,0,,,
STOP_1f67d4a5-d4b4-4237-9c4c-65d3ed36aad2,,Heerewaarden,,51.8268268,5.3867769,,,0,,,
STOP_28ddca26-4381-440c-b71b-7d1f14b67bfd,,Kortenoord scoutinggebouw,,51.9742737,4.6296322,,,0,,,
VV:152:1,,Kortgene,,51.5505600,3.8113900,,,0,,,
STOP_c8ffe45c-00a0-43b9-a028-f2b39f9dd2f3,,Hooidammen,,53.1031782,5.9490108,,,0,,,
STOP_48440397-494d-4017-b624-4eda3268f165,,Stevensweert,,51.1368705,5.8460140,,,0,,,
STOP_1ce501a0-2d61-4b7e-be8b-79b895eca766,,Cruquius,,52.3384726,4.6392989,,,0,,,
STOP_e1fb7da6-e631-422d-93dc-d4e197f43f20,,Dodewaard,,51.9004353,5.6049585,,,0,,,
VV:166:1,,Gouderak,,51.9852800,4.6730600,,,0,,,
STOP_14065009-a511-4f02-964f-a9014ad704c6,,It Wiid,,53.1298692,5.9440756,,,0,,,
VV:156:1,,Hoofddorp Liniepad,,52.3295530,4.6766500,,,0,,,
VV:154:1,,Puttershoek,,51.8072200,4.5772200,,,0,,,
STOP_7a45b098-d27c-47c0-8a42-331d62f1b778,,Texel Oosterend (Schorreweg),,53.1061411,4.8602700,,,0,,,
STOP_70fdf2f9-5752-4251-aed9-50db0a581a4e,,Zwanburgpolder 2,,52.1951131,4.5313668,,,0,,,
VV:54:1,,Burghsluis,,51.6748700,3.7548200,,,0,,,
STOP_be6fca3e-6577-48bb-9c90-02b075f7d7c8,,Kaag,,52.2116170,4.5573735,,,0,,,
STOP_0902c4ef-511d-4760-9a9a-4a563b125093,,Woerden,,52.1037638,4.8699689,,,0,,,
STOP_1d602214-d65f-480f-a5c2-fdf4d6f1d98e,,Kamerik,,52.1394740,4.8725224,,,0,,,
VV:60:2,,Zevenhuizen,,52.0145630,4.5579310,,,0,,,
STOP_fc4e663a-bf53-468f-bc00-d6cf4708410f,,Woudfennen,,52.9619655,5.7432210,,,0,,,
VV:251:1,,Nieuwendijk,,51.7538900,4.3177800,,,0,,,
STOP_22196cf7-0f3f-4580-9e43-581334b292a9,,Britsum,,53.2519147,5.8308756,,,0,,,
STOP_4208c801-d9d4-4259-9aea-3134e2b68f3c,,Urk,,52.6589971,5.5970407,,,0,,,
STOP_630382c1-c8f7-4555-9260-662daf645c68,,Kamerik,,52.1037836,4.8700655,,,0,,,
STOP_74aed4c7-3bb7-45bb-846c-876041473353,,Oosthuizen Molen Etersheim 2,,52.5755023,5.0166750,,,0,,,
VV:60:1,,Zevenhuizen,,52.0145630,4.5579310,,,0,,,
STOP_8131ca17-cf07-461a-810e-2e3399806e82,,Galathese Haven,,51.6610031,4.3142581,,,0,,,
STOP_78e01e55-75f8-42ab-86ac-1f3856c9f72c,,Lith,,51.8088801,5.4396486,,,0,,,
VV:62:1,,Starnmeerplder,,52.5461100,4.7777800,,,0,,,
VV:147:6,,Amersfoort,,52.1597800,5.3842100,,,0,,,
STOP_76656803-3feb-4b20-b458-93c5e86d9d69,,Texel de Cocksdorp,,53.1755693,4.8687780,,,0,,,
STOP_a441de79-72c5-4e0a-9a8f-d153571022e0,,Niftrik,,51.7972434,5.6611454,,,0,,,
STOP_d090be73-6662-4642-957f-d92cac2bf1b7,,Kamperland Sophiahaven,,51.5937354,3.7134433,,,0,,,
STOP_16c24785-0cf7-44c8-beb3-961423a91d20,,Keimpetille,,53.1830859,5.6016970,,,0,,,
STOP_2b513f34-5838-4d21-833f-35c78bbe3c83,,Zaanse Schans Bonte Hen,,52.4778403,4.8135996,,,0,,,
STOP_c3c95fe6-2e1d-410e-85e9-c57824b72edc,,Lemmer,,52.8941729,5.6893086,,,0,,,
STOP_f7c63005-41b3-4b2b-841c-2268f67681a6,,Klazienaveen Scholtenskanaal OZ,,52.7416052,6.9978404,,,0,,,
VV:96:2,,Aduarderzijl,,53.3169550,6.4696880,,,0,,,
STOP_bd6e6732-b254-4db1-9846-9035c385f5db,,Brekkenpolder,,52.8946131,5.6894803,,,0,,,
STOP_bd00f53b-62b7-4ceb-b8bc-45bbf80717c5,,Bronkhorst,,52.0820642,6.1726642,,,0,,,
STOP_20b212ba-0d6c-4cad-9075-9a81fd7d1535,,Blauwe Stad Reiderwolde,,53.1575537,7.0696592,,,0,,,
STOP_79161d72-5d4e-4593-bb4b-8a952d95b8f5,,Moerdijk,,51.7048133,4.6213067,,,0,,,
STOP_836ea28b-9ca1-43e0-afe4-265204083e18,,Beesel,,51.2864804,6.0499048,,,0,,,
STOP_ee67ebfd-d49c-43d3-a79a-b4fd3032cc08,,Wijk bij Duurstede,,51.9653836,5.3435183,,,0,,,
STOP_7f999e19-5bf6-4cda-befb-cfaa59938e83,,Kinderdijk,,51.8883853,4.6281624,,,0,,,
STOP_e3f6eaef-77bc-469d-af6b-68fe7ec4e198,,Galgenwaard,,51.8742985,5.0731945,,,0,,,
STOP_29eb5c03-cf8e-474e-b15a-a8abe3088cc0,,Maren / Kessel,,51.7844091,5.3664780,,,0,,,
STOP_92baa2f8-ac25-464b-9419-6d65dde96e04,,Zwolle Agnietenberg,,52.5401232,6.1344159,,,0,,,
STOP_67ae39e5-1d65-4f17-9c13-8f3bed40015d,,Giesbeek,,52.0054117,6.0617924,,,0,,,
STOP_13e135f4-a023-4161-bf9e-5fef512bb69a,,Rijkel,,51.2584505,6.0070324,,,0,,,
STOP_373a15b9-c351-4bd8-94d1-cd4095793bd8,,Walcheren 3,,51.5304661,3.5192513,,,0,,,
STOP_6478e0cd-9373-4913-9669-d12469389d97,,Rozenburg,,51.9114232,4.2432117,,,0,,,
VV:102:2,,Rheeze,,52.5360080,6.5853520,,,0,,,
STOP_302d781e-5619-49e1-b3bd-32243fe74d8d,,Werk aan t Spoel,,51.9607230,5.1932395,,,0,,,
VV:183:1,,Arkel,,51.8580600,5.0063900,,,0,,,
STOP_246c4ddf-8571-4072-bd8f-c8c3c575f389,,Herwijnen,,51.8283784,5.0930214,,,0,,,
STOP_3e1587cf-7443-4abb-aedb-56299b0ec8c6,,Nederhemert Zuid,,51.7574213,5.1598406,,,0,,,
VV:245:1,,Nigtevecht,,52.2722200,5.0294400,,,0,,,
STOP_35ea4e10-521e-4ec6-a18a-73129c32c014,,Starteiland,,53.0268839,5.7330930,,,0,,,
STOP_e29bd90d-1f8b-4fa5-948e-16c4c4b68081,,Wijns,,53.2517799,5.8313477,,,0,,,
STOP_d2c5da7d-f22a-4643-b953-7b7a45c44b5b,,Oud Zuilen,,52.1266253,5.0713599,,,0,,,
STOP_d27b691d-7f7a-4dbf-9407-f406eed8bde2,,Blokzijl,,52.7190995,6.0164523,,,0,,,
STOP_8ce6b51e-2e79-409e-bab0-70a872108693,,Demen,,51.8189619,5.6325746,,,0,,,
STOP_0b700704-512e-436e-b2ca-6d407283bec8,,Spijkerboor,,52.5389616,4.8333192,,,0,,,
VV:70:4,,Wessem,,51.1583130,5.8835600,,,0,,,
STOP_f44688b4-9393-4816-bc68-d03b6d10670e,,Akersloot,,52.5707881,4.7461796,,,0,,,
STOP_64250aad-a3e9-48be-bde1-a4d007880c21,,Slijk-Ewijk,,51.8792330,5.7832289,,,0,,,
VV:22:2,,Heeg,,52.9663900,5.6083300,,,0,,,
STOP_dce22e2c-5272-4fee-ac67-671d96d940e7,,Rotem,,51.0417447,5.7647753,,,0,,,
STOP_38e8007c-2c84-4036-9ca6-5428bf71cd4a,,Ophoven,,51.1237077,5.8168423,,,0,,,
STOP_0f7fc0bf-23fa-4e46-8fde-f5d528e6eb0d,,Reinderslooi natuurgebied,,51.5771562,6.0998690,,,0,,,
VV:225:1,,Werkendam,,51.7763980,4.9026610,,,0,,,
VV:38:15,,Baarlo,,51.3336100,6.1163900,,,0,,,
VV:38:13,,Middelaar,,51.7316700,5.8852800,,,0,,,
VV:38:11,,Lottum,,51.4591700,6.1725000,,,0,,,
VV:188:1,,Heukelum Koornwaard (noord),,51.8653860,5.0548640,,,0,,,
STOP_0f48ad32-4bb5-400a-82b7-c238eb57fda1,,Spakenburg,,52.2594635,5.3820777,,,0,,,
STOP_2c31d0d2-c714-4aeb-993b-931ab8c6a01f,,Maarssen,,52.1426674,5.0324464,,,0,,,
STOP_33bba952-e26d-414f-9e12-3dd8fe8ec716,,Everdingerwaard,,51.9715771,5.1484358,,,0,,,
STOP_cf478abf-49d8-4667-a4e8-61f342e8ca0d,,Tijnje,,53.0564402,5.9690309,,,0,,,
STOP_be1b9cc1-fb06-42c6-98db-a8792c16fcff,,Hijken Oranjekanaal Noordzijde,,52.8949238,6.5180469,,,0,,,
STOP_7578f2f1-aa3b-4319-9bc5-7d18fc3d70bd,,De Deelen,,53.0186816,5.9204078,,,0,,,
STOP_ffac81a6-0099-4128-ac8e-56e4963919f8,,Staphorst,,52.6845257,6.2017608,,,0,,,
STOP_5305a789-c9cb-4ca3-9104-8382fd3a8c21,,IJlst Ruterpolder,,53.0097097,5.6218565,,,0,,,
STOP_262c29c1-793c-4f58-99c0-75376a157ef0,,Jachthaven,,52.6399255,6.0744202,,,0,,,
STOP_5c87a56b-86fd-402e-ab85-5713ae9f0c3d,,Nieuwegein,,52.0017725,5.0880218,,,0,,,
VV:231:1,,Oud Ade,,52.1992620,4.5538690,,,0,,,
VV:235:1,,Sluiskil Oost,,51.2825000,3.8413900,,,0,,,
STOP_9c532ae0-1f98-4d45-97a9-77c6660af7f5,,De Woude,,52.5461522,4.7771537,,,0,,,
STOP_9bfd9617-850c-480f-b44e-40ca38ad63af,,Ilpendam Jaagweg,,52.4635599,4.9492443,,,0,,,
STOP_830a3003-a881-4b3b-8855-46443171b021,,Schalkwijk,,51.9623030,5.2152658,,,0,,,
STOP_5cbcd700-2d3f-4e3d-93e6-23f27542c863,,De Zilk (1),,52.2993990,4.5553243,,,0,,,
STOP_acdcef4f-c3f4-47c7-b2e5-ae046d43218b,,Starnmeerpolder,,52.5198116,4.7921956,,,0,,,
STOP_59e69d61-5133-479b-8124-b22e85e42a05,,Warmond Zijldijk,,52.1840106,4.5203698,,,0,,,
STOP_e4604196-fef5-4976-aa73-3189490d03c5,,Tiengemeten,,51.7437319,4.3225086,,,0,,,
STOP_fc0958f4-61ff-4a9c-91e6-299e6e6ff4d6,,Reutum,,52.3695533,6.8346977,,,0,,,
VV:194:1,,Fort,,52.6539310,6.3648490,,,0,,,
STOP_0c31798a-86cc-41ca-86f4-2447dd135c3c,,Alendorperweg,,52.0936009,5.0311267,,,0,,,
STOP_ba540045-d3f5-4ed4-8c6e-3a5d413ed40a,,Amstelzijde,,52.2970764,4.9007928,,,0,,,
STOP_7bbe2c48-da4b-411b-8960-7c73a0334d9a,,Breukelen,,52.1894569,4.9973416,,,0,,,
VV:63:1,,Nieuwerkerk a/d IJssel,,51.9366700,4.6308300,,,0,,,
STOP_2c289281-be3e-467b-bc79-99434907a43e,,Kinderdijk,,51.8884118,4.6282697,,,0,,,
STOP_7dfd7a97-bdd5-42b0-9a7b-0bf597243720,,Bleiswijk,,52.0146439,4.5561075,,,0,,,
STOP_8e4f46c4-a8b6-4a1f-8470-f897e5ec1633,,Amsterdam Siegerpark,,52.3392592,4.8184276,,,0,,,
STOP_5a6e6d90-c661-4ffe-a9e7-b87623848fd6,,Enspijk,,51.8865378,5.2132595,,,0,,,
STOP_f5b8105e-9092-4ca5-9c5f-cc8bb80651a3,,Rotstergaast,,52.8897972,5.8842838,,,0,,,
STOP_cdc00e04-5ac4-49e6-bcba-c17b9b99c9ff,,Heeten,,52.3494710,6.2722492,,,0,,,
STOP_4ce1d265-a509-4f7b-a625-912807eb510a,,Wageningen,,51.9422675,5.6153440,,,0,,,
STOP_5e50945d-e026-45de-b2af-c42832842ec7,,Haarlem Spaarnelaan,,52.3645680,4.6363056,,,0,,,
VV:121:1,,Hattem,,52.4797200,6.0761100,,,0,,,
STOP_756883de-cc77-4ff1-97ee-9d8a67f5689b,,Heijningen Markweg,,51.6486626,4.3856156,,,0,,,
STOP_3e5db931-9a1d-41e3-b442-4efae80260bf,,Merwedekanaaldijk,,52.3568367,4.9622691,,,0,,,
STOP_c195508f-b1f4-45ca-a607-ebca5e37ef69,,Arcen,,51.4722950,6.1794877,,,0,,,
STOP_89ca3ad7-6a06-475f-953f-5a18fc8a123f,,Wilp,,52.2081984,6.1889505,,,0,,,
VV:77:1,,Anna Paulowna,,52.8827800,4.7744400,,,0,,,
VV:38:1,,Grubbenvorst,,51.4197200,6.1558300,,,0,,,
VV:39:4,,Aalst,,51.7813900,5.1144400,,,0,,,
STOP_3b180ac7-10bf-4814-b557-94cdbad18036,,Hellevoetsluis,,51.8214488,4.1363204,,,0,,,
STOP_845f8376-09ac-4988-8fe9-6b279de56afc,,Heukelum Koornwaard (zuid),,51.8651765,5.0552559,,,0,,,
VV:39:6,,Brakel,,51.8247200,5.0927800,,,0,,,
VV:84:1,,Landsmeer,,52.4220270,4.9476830,,,0,,,
STOP_df510296-2aab-4fb8-b7c5-f032866e1c07,,Grou Seinpolle,,53.0987656,5.8440399,,,0,,,
VV:175:1,,Hansweert,,51.4483300,4.0111100,,,0,,,
VV:38:8,,Rijswijk,,51.9647200,5.3455600,,,0,,,
STOP_6e568c0a-7826-4dcc-8763-0785338d0269,,Pannerden,,51.8933778,6.0252285,,,0,,,
STOP_630a048b-d0d9-4976-a70c-fc3db78164c4,,Meije,,52.1494619,4.8305833,,,0,,,
VV:38:9,,Beusichem,,51.9627800,5.2808300,,,0,,,
VV:83:4,,Kamperland Uithaven,,51.5662170,3.6996240,,,0,,,
STOP_7de95bf7-e303-4623-9fb9-e27ae43e87ef,,Stavoren,,52.8866317,5.3568757,,,0,,,
VV:76:1,,Nunspeet,,52.3969400,5.7355600,,,0,,,
STOP_d0ce80ec-aa33-4498-824d-3c5f0d0268bc,,Amsterdam Schellingwouder park (oost),,52.3833076,4.9607563,,,0,,,
STOP_1fea469a-af52-44d6-b6bf-bc1e2077a70c,,Middelharnis,,51.7601772,4.1661251,,,0,,,
VV:38:5,,Berg,,51.0063900,5.7669400,,,0,,,
VV:246:2,,recr.geb.Geestmerambacht,,52.6799210,4.7501990,,,0,,,
STOP_9dd3b8be-e288-4e42-8851-8147e0ccb437,,Emden-Knock,,53.3366327,7.0264328,,,0,,,
STOP_8f398d3a-5151-4e48-9963-bc7b43307120,,Muiden,,52.3340869,5.0703084,,,0,,,
STOP_d09d36ce-db18-4c06-b950-7cdb9c18931c,,Lathum,,52.0069704,6.0565567,,,0,,,
VV:172:1,,Zevenaar,,51.8958300,6.0919400,,,0,,,
VV:79:3,,Lauwersoog,,53.4102800,6.1975000,,,0,,,
STOP_22bc7db7-350f-4710-a186-c2d59120723b,,Amerongen,,51.9842722,5.4567719,,,0,,,
VV:18:2,,Oosthuizen Warder 2,,52.5754430,5.0163390,,,0,,,
STOP_e2f67b4d-0ec1-4011-9574-958731c41484,,Nije Schouw,,53.0308973,5.8356392,,,0,,,
VV:72:1,,Fortmond,,52.3725730,6.0897560,,,0,,,
STOP_ec27e62f-76ed-4bd8-8798-af73efd4d1ee,,Ouderkerkerdijk,,52.3239306,4.8958468,,,0,,,
STOP_81f33087-a104-46fe-9fdf-f3e67d2952f3,,Zeewolde,,52.3209403,5.5526018,,,0,,,
STOP_9443c01d-9aca-4c8a-994c-87dee5de47ea,,Wijk bij Duurstede,,51.9641276,5.2812910,,,0,,,
STOP_8d6cb380-8710-4dea-be6a-2baf21e5ba80,,Den Helder Handelskade,,52.9496657,4.7775185,,,0,,,
VV:18:6,,Oosthuizen Molen Etersheim 1,,52.5757910,5.0090040,,,0,,,
VV:18:7,,Hobrede,,52.5457510,4.9954830,,,0,,,
STOP_45139685-17d2-49d5-ab2f-862cc8d95cc8,,Kampen Kampereiland,,52.6018355,5.9508026,,,0,,,
VV:73:1,,Olst,,52.3405600,6.1036100,,,0,,,
STOP_e1851a3a-2bbd-41fb-8a67-56c31f1f38b9,,Zevenaar,,51.9095303,6.0372555,,,0,,,
STOP_4127a227-6d31-4a15-a69f-67f66748052f,,Wormerveer Batavia,,52.4917111,4.7983003,,,0,,,
VV:75:1,,Nieuwersluis,,52.1954444,5.0069100,,,0,,,
STOP_82d82fc9-cbfa-4728-b12a-17e492dbae8d,,82d82fc9-cbfa-4728-b12a-17e492dbae8d,,52.3255765,4.8187602,,,0,,,
STOP_9b02909b-09dd-4104-8f3e-2d31e9af4cd1,,s Heerenbroek,,52.5327293,6.0153794,,,0,,,
STOP_a79a3357-d16c-4edc-9729-f42a22bf2247,,a79a3357-d16c-4edc-9729-f42a22bf2247,,51.9674063,5.7316554,,,0,,,
STOP_5dd3f684-f85c-442a-b2c1-d694c263d705,,Amsterdamse Bos,,52.3295303,4.8214316,,,0,,,
VV:44:1,,Maassluis,,51.9146590,4.2493580,,,0,,,
STOP_2d7b08a6-2a36-49d2-ae61-44e76bdfc360,,Jachthaven,,53.0103487,5.7690990,,,0,,,
STOP_868f6fdb-d6f6-4095-9d2b-6891b349538a,,Vlissingen Koningsweg,,51.4445191,3.5790002,,,0,,,
STOP_e67c1dca-aa2e-49e7-bd1e-b0956467f28d,,Wormerveer Marktstraat,,52.4927432,4.7914445,,,0,,,
VV:42:1,,Lekkerkerk,,51.8944400,4.6841700,,,0,,,
VV:10:1,,Eijsden,,50.7769400,5.6994400,,,0,,,
STOP_cbebe963-694d-41b5-a2d1-8345b521b507,,Sint Jansklooster Natuurmonumenten 2,,52.6849159,6.0063887,,,0,,,
STOP_2646681d-29ca-42c1-b538-41313a796c28,,Zierikzee,,51.6422115,3.9104676,,,0,,,
STOP_648e5280-acca-4045-abb8-6f32f90bb396,,Loevestein,,51.8170120,5.0110960,,,0,,,
STOP_acc7798f-bc2b-469a-894a-ce41a4294716,,Blauwe Stad Eiland Hidra,,53.1852204,7.0617735,,,0,,,
STOP_68cf92a8-c51d-4fab-a312-7cfd308479a2,,Kamperland,,51.5573560,3.6835098,,,0,,,
STOP_0ae0069a-2f7e-4d0a-bd83-e619c3e71e5a,,Arcen,,51.4867279,6.1680079,,,0,,,
STOP_3c813f5d-cee4-441d-aa61-34cc12dcac7d,,Klazienaveen Scholtenskanaal WZ,,52.7416182,6.9976258,,,0,,,
STOP_26e06e00-9a66-4c53-bea8-057f29758002,,Zierikzee,,51.6422048,3.9103174,,,0,,,
STOP_5c0b5198-f411-42fe-8149-d0c2d648eb4d,,Suyderoogh,,53.3953574,6.2124681,,,0,,,
STOP_28eae882-e34c-4eb3-8937-7d9f510bbbff,,Veere Wallen oz,,51.5498177,3.6635542,,,0,,,
STOP_cbc74a19-8d74-40bb-bc76-3d64fec693aa,,Broek in Waterland,,52.4150570,5.0223720,,,0,,,
STOP_bfa5a329-56ed-4fc7-bd72-c1cd8419a935,,Veen,,51.7801877,5.1124191,,,0,,,
STOP_34d16d08-de53-4c46-ae34-c34ecbac3965,,Tiengemeten,,51.7437386,4.3224978,,,0,,,
STOP_5c169511-b675-46bc-b7da-55799e08b177,,It Heidenskip,,52.9583916,5.5368519,,,0,,,
STOP_77a7e140-bf90-4011-9433-81d08e31dbb4,,Schouw,,52.4216200,4.9486327,,,0,,,
VV:180:2,,Reinderslooi,,51.5763900,6.0986100,,,0,,,
VV:118:1,,Vierlingsbeek,,51.5972200,6.0241700,,,0,,,
STOP_8a437559-7f69-400d-a871-d0d4b2419f1e,,Doornenburg,,51.8831405,6.0055733,,,0,,,
STOP_eac84ca0-dc49-4788-9d7f-0cb5ef5fd4f3,,Kalenbergerpad,,52.7799369,5.9622610,,,0,,,
STOP_b7af6e1f-2f5f-4712-9deb-b485e570569d,,Ouderkerk a/d Amstel,,52.2972273,4.9013400,,,0,,,
STOP_e1e11eb2-46fe-477b-904a-50988a1b359b,,Jonen,,52.7190735,6.0171068,,,0,,,
STOP_f6f71728-0e37-4d01-920f-360f0c407a8c,,Zwartsluis,,52.6308489,6.0402274,,,0,,,
STOP_c4ee1ab5-d8a6-440d-be64-0cb0e0503516,,Sint Annaland,,51.6036387,4.1096377,,,0,,,
STOP_39d53ba4-d79b-46f7-8f7f-af857c4a4999,,Amsterdam Schellingwouder park (west),,52.3844143,4.9537504,,,0,,,
STOP_e15462eb-3fd8-4c3f-9685-27f3cc81883f,,Bern,,51.7438847,5.1632094,,,0,,,
STOP_a9483b78-dd55-4c36-b047-76f475fc8ba4,,Vlieland,,53.2960165,5.0757587,,,0,,,
STOP_423c7367-ef8c-4d81-8fb8-f00d8fedd8ed,,Oud-Bergentheim,,52.5358097,6.5860999,,,0,,,
STOP_886e1397-d0f0-47a6-bc32-d37603973223,,Kaag,,52.2185653,4.5598841,,,0,,,
STOP_1e23dbf2-a9a0-4ed7-800e-49ded10705b8,,Vianen,,52.0005109,5.0889122,,,0,,,
STOP_e75e11b4-676d-4aea-845b-f719f4ba623d,,Geniedijk,,52.3295500,4.6767747,,,0,,,
VV:116:1,,Warfhuizen,,53.3502420,6.4393800,,,0,,,
STOP_92e3db02-92cc-4c40-9704-894e4c17aca4,,Stadsblokkenwerf,,51.9774989,5.9025443,,,0,,,
STOP_24d68ec9-a662-41f3-af2b-ed696a02c884,,Appeltern,,51.8285110,5.5667210,,,0,,,
STOP_42e2289f-a571-4063-aacc-3fe95b5a9b6d,,42e2289f-a571-4063-aacc-3fe95b5a9b6d,,51.7313741,3.9119375,,,0,,,
